name,type_code,type,star_rating,review_total,address_si,address_gu,address_lo,address_detail,area,contact,create_time,lat,lng
설화수스파 롯데호텔서울점,G6,"피부,체형관리",4.44,74,서울,중구,을지로,30 롯데호텔 본관 7층,jongno,02-318-6121,2023-08-20 16:40:58,126.9816208,37.5654272
프로방스 스파 바이 록시땅,G6,"피부,체형관리",4.44,74,서울,종로구,청계천로,279 JW 메리어트 동대문 스퀘어 서울 8층,jongno,02-2276-3282,2023-08-20 16:40:58,127.0087842,37.5703168
더벨스파 더플라자점,G6,"피부,체형관리",4.58,57,서울,중구,소공로,119 플라자호텔 별관 15F,jongno,0507-1418-7809,2023-08-20 16:40:58,126.9779270,37.5647566
포시즌스호텔서울 스파,G6,"피부,체형관리",4.58,369,서울,종로구,새문안로,97,jongno,02-6388-5250,2023-08-20 16:40:58,126.9753951,37.5706979
아울스파,G6,"피부,체형관리",4.32,97,서울,중구,남대문로9길,40 센터 플레이스 B/D 지하 B105,jongno,02-6031-8939,2023-08-20 16:40:58,126.9803692,37.5670959
더벨스파 현대시티아울렛동대문점,G6,"피부,체형관리",4.34,42,서울,중구,장충단로13길,20 현대시티아울렛 지하1층,jongno,0507-1421-2132,2023-08-20 16:40:58,127.0076665,37.5687346
라뽀스파,G6,"피부,체형관리",4.57,318,서울,종로구,종로33길,3,jongno,02-742-6661,2023-08-20 16:40:58,127.0013769,37.5713149
브이스파 웨스틴조선호텔 서울점,G6,"피부,체형관리",4.86,455,서울,중구,소공로,106 서울 웨스틴조선호텔 3층 SPA,jongno,02-318-0506,2023-08-20 16:40:58,126.9800463,37.5644687
브이스파 롯데에비뉴엘본점,G6,"피부,체형관리",4.56,48,서울,중구,남대문로,73 롯데백화점 에비뉴엘 본점 10층,jongno,02-2118-6300,2023-08-20 16:40:58,126.9817070,37.5641952
코리아스파 명동본점,G6,"피부,체형관리",4.56,48,서울,중구,명동7길,8 미래빌딩 4층,jongno,02-3789-3382,2023-08-20 16:40:58,126.9847333,37.5642362
레비쉬스파,G6,"피부,체형관리",정보 없음,283,서울,종로구,동숭3길,6-4 2층,jongno,0507-1320-1470,2023-08-20 16:40:58,127.0047378,37.5811342
장금 스파 에스테틱 명동점,G6,"피부,체형관리",4.95,284,서울,중구,명동7길,25 4층 장금스파에스테틱 명동점,jongno,0507-1319-1666,2023-08-20 16:40:58,126.9842070,37.5649208
HNspa 덕수궁점,G6,"피부,체형관리",4.95,284,서울,종로구,새문안로2길,10 디팰리스 지하 2층,jongno,0507-1478-1168,2023-08-20 16:40:58,126.9720468,37.5687024
발몽브이스파,G6,"피부,체형관리",정보 없음,0,서울,중구,남대문로,73 AVENUEL,jongno,정보 없음,2023-08-20 16:40:58,126.9817070,37.5641952
미스터사우나앤스파,G6,"피부,체형관리",4.28,55,서울,종로구,새문안로3길,30,jongno,0507-1317-9434,2023-08-20 16:40:58,126.9733705,37.5727373
스킨스파 명동본점,G6,"피부,체형관리",4.28,55,서울,중구,남대문로,68 고려빌딩 4층,jongno,0507-1452-0901,2023-08-20 16:40:58,126.9822761,37.5631215
스파더숲,G6,"피부,체형관리",4.57,338,서울,종로구,경희궁2길,6 3층,jongno,0507-1308-1970,2023-08-20 16:40:58,126.9709940,37.5726246
박선생헤드스파,G6,미용,4.91,342,서울,중구,명동8가길,48 재성빌딩 4층,jongno,02-752-0306,2023-08-20 16:40:58,126.9877535,37.5617443
위뷰티 명동점,G6,"피부,체형관리",4.17,470,서울,중구,퇴계로,116-1 삼영빌딩 6층,jongno,0507-1422-5509,2023-08-20 16:40:58,126.9846497,37.5605566
스파by보떼비알,G6,"피부,체형관리",4.17,470,서울,중구,퇴계로,67 레스케이프 호텔 8층,jongno,02-317-4006,2023-08-20 16:40:58,126.9795418,37.5596664
아로마힐링스파,G6,"마사지,지압",4.57,52,서울,중구,다산로36길,65 2층,jongno,0507-1443-3394,2023-08-20 16:40:58,127.0183571,37.5611198
명동스파,G6,"피부,체형관리",정보 없음,43,서울,중구,퇴계로,141-10 1층,jongno,0507-1335-1360,2023-08-20 16:40:58,126.9876696,37.5616681
다함 테라피 & 스파,G6,"피부,체형관리",정보 없음,109,서울,종로구,사직로8길,"4 상가 301동 B1, 102호",jongno,02-725-9005,2023-08-20 16:40:58,126.9686008,37.5744035
오스파앤피트니스,G6,"피부,체형관리",정보 없음,251,서울,중구,퇴계로46길,3 2층,jongno,02-517-6442,2023-08-20 16:40:58,127.0002141,37.5622577
휴고스파,G6,"피부,체형관리",정보 없음,1,서울,중구,퇴계로,139,jongno,02-3789-4750,2023-08-20 16:40:58,126.9872180,37.5614833
더셀트리스파,G6,"피부,체형관리",4.8,85,서울,중구,퇴계로,19 마누호텔 지하1층,jongno,0507-1301-8682,2023-08-20 16:40:58,126.9748732,37.5571392
자마이카피트니스앤스파 종로점,G6,헬스장,4.8,85,서울,종로구,종로,19 B2층,jongno,0507-1317-8533,2023-08-20 16:40:58,126.9798606,37.5708345
플라자스파클럽,G6,"온천,스파",3.9,22,서울,중구,소공로,119,jongno,정보 없음,2023-08-20 16:40:58,126.9779270,37.5647566
엘케이스파,G6,"목욕,찜질",3.9,22,서울,중구,을지로,148 중앙데코프라자,jongno,02-2277-0060,2023-08-20 16:40:58,126.9944864,37.5662196
코리아나호텔바버샵,G6,이용원,4.85,654,서울,중구,세종대로,135 코리아나호텔 (9층),jongno,0507-1418-2606,2023-08-20 16:40:58,126.9765840,37.5683348
더포레스파,G6,경영컨설팅,4.85,654,서울,종로구,삼봉로,57 12층 1201호,jongno,0507-1494-7792,2023-08-20 16:40:58,126.9804738,37.5725615
앤올리브에스테틱 동대문본점,G6,"피부,체형관리",4.93,905,서울,중구,장충단로13길,20 스카이파크호텔 킹스타운점 14층 앤올리브에스테틱,jongno,0507-1400-2604,2023-08-20 16:40:58,127.0076665,37.5687346
로스만스파이스트비브이,G6,"물류,유통",4.93,905,서울,중구,을지로5길,26 21층,jongno,02-6744-7300,2023-08-20 16:40:58,126.9850954,37.5672787
HNspa 코리아나호텔점,G6,"피부,체형관리",정보 없음,60,서울,중구,세종대로,135 코리아나호텔 8층,jongno,02-739-1119,2023-08-20 16:40:58,126.9765840,37.5683348
국일관24시대중사우나,G6,"목욕탕,사우나",정보 없음,81,서울,종로구,수표로,96 국일관드림펠리스 지하2층,jongno,02-2277-9741,2023-08-20 16:40:58,126.9900498,37.5697051
엘레먼트,G6,"피부,체형관리",4.78,480,서울,중구,명동길,61 로얄호텔 지하1층,jongno,0507-1319-5810,2023-08-20 16:40:58,126.9858643,37.5643862
종로사우나,G6,"목욕탕,사우나",4.78,480,서울,종로구,삼일대로30길,21 지하2층,jongno,02-766-2572,2023-08-20 16:40:58,126.9886047,37.5742255
LJW hair,G6,미용실,4.93,32,서울,종로구,윤보선길,35 1F LJW hair,jongno,02-3210-4354,2023-08-20 16:40:58,126.9836758,37.5775553
종로대중사우나,G6,"목욕탕,사우나",정보 없음,89,서울,종로구,창경궁로,112-7,jongno,02-741-0906,2023-08-20 16:40:58,126.9980940,37.5725704
백상사우나,G6,"목욕탕,사우나",4.54,180,서울,종로구,인사동길,31,jongno,02-722-6995,2023-08-20 16:40:58,126.9856557,37.5734050
모밸 Scalp Head Spa,G6,"두피,탈모관리",4.54,180,서울,중구,장충단로,253 헬로우APM 10층 2호 모밸런스,jongno,0507-1368-2666,2023-08-20 16:40:58,127.0081041,37.5674846
스파사우나,G6,"목욕탕,사우나",정보 없음,2,서울,종로구,사직로8길,4,jongno,정보 없음,2023-08-20 16:40:58,126.9686008,37.5744035
문화목욕탕,G6,"목욕탕,사우나",정보 없음,0,서울,종로구,돈화문로5길,28-3,jongno,정보 없음,2023-08-20 16:40:58,126.9904428,37.5708711
낙원동사우나,G6,"목욕탕,사우나",정보 없음,27,서울,종로구,삼일대로26길,7,jongno,02-6339-2005,2023-08-20 16:40:58,126.9885735,37.5733025
디디앤디 헤어앤바버,G6,미용실,4.91,219,서울,중구,명동8길,8-10 1층 디디앤디헤어앤바버,jongno,0507-1409-0708,2023-08-20 16:40:58,126.9841142,37.5633753
코리아개발,G6,"목욕탕,사우나",4.91,219,서울,중구,청계천로,188,jongno,02-2274-4324,2023-08-20 16:40:58,126.9985401,37.5687240
현대옥사우나,G6,"목욕탕,사우나",3.71,14,서울,종로구,창신길,22,jongno,02-763-4343,2023-08-20 16:40:58,127.0109717,37.5726386
수석보석사우나,G6,"목욕탕,사우나",3.71,14,서울,종로구,지봉로,82,jongno,02-744-9935,2023-08-20 16:40:58,127.0156949,37.5774240
용림탕,G6,"목욕탕,사우나",정보 없음,5,서울,종로구,종로,252-6,jongno,02-2272-2500,2023-08-20 16:40:58,127.0057016,37.5707402
지우스파,G6,"목욕탕,사우나",정보 없음,2,서울,중구,퇴계로20길,32,jongno,02-777-0087,2023-08-20 16:40:58,126.9858885,37.5587166
